{
"type": "FeatureCollection",
"name": "ALLBBM",
"crs": { "type": "name", "properties": { "name": "urn:ogc:def:crs:EPSG::3857" } },
"features": [
{ "type": "Feature", "properties": { "Name": "Internist - Herr MU Dr. (Univ. Bratis.) Haileab Gebreluel", "type": "Gesundheit", "link": null, "Text": null, "Name_1": "Internist - Herr MU Dr. (Univ. Bratis.) Haileab Gebreluel", "Gsearch": "https:\/\/www.google.com\/search?q=Internist - Herr MU Dr. (Univ. Bratis.) Haileab Gebreluel" }, "geometry": { "type": "Point", "coordinates": [ 8.589848700000061, 50.083172500000046, 0.0 ] } },
{ "type": "Feature", "properties": { "Name": "English speaking Psychologist - Jason C. Kelley", "type": "Gesundheit", "link": null, "Text": null, "Name_1": "English speaking Psychologist - Jason C. Kelley", "Gsearch": "https:\/\/www.google.com\/search?q=English speaking Psychologist - Jason C. Kelley" }, "geometry": { "type": "Point", "coordinates": [ 8.67668, 50.1113, 0.0 ] } },
{ "type": "Feature", "properties": { "Name": "Allgemeinmedizin - Dr. med. Ruga Alemayeha", "type": "Gesundheit", "link": null, "Text": null, "Name_1": "Allgemeinmedizin - Dr. med. Ruga Alemayeha", "Gsearch": "https:\/\/www.google.com\/search?q=Allgemeinmedizin - Dr. med. Ruga Alemayeha" }, "geometry": { "type": "Point", "coordinates": [ 8.63649950000007, 50.100592, 0.0 ] } },
{ "type": "Feature", "properties": { "Name": "Psychiatrie und Psychotherapie - Frau Dr. med. Jolanta Azubuike", "type": "Gesundheit", "link": null, "Text": null, "Name_1": "Psychiatrie und Psychotherapie - Frau Dr. med. Jolanta Azubuike", "Gsearch": "https:\/\/www.google.com\/search?q=Psychiatrie und Psychotherapie - Frau Dr. med. Jolanta Azubuike" }, "geometry": { "type": "Point", "coordinates": [ 8.69787, 50.116447, 0.0 ] } },
{ "type": "Feature", "properties": { "Name": "Kardiologie - Herr Bereket Ablelom", "type": "Gesundheit", "link": null, "Text": null, "Name_1": "Kardiologie - Herr Bereket Ablelom", "Gsearch": "https:\/\/www.google.com\/search?q=Kardiologie - Herr Bereket Ablelom" }, "geometry": { "type": "Point", "coordinates": [ 9.261678, 49.704338900000039, 0.0 ] } },
{ "type": "Feature", "properties": { "Name": "Psychosomatische Medizin und Psychotherapie - Frau Fiaza Makumbi-Kidza", "type": "Gesundheit", "link": null, "Text": null, "Name_1": "Psychosomatische Medizin und Psychotherapie - Frau Fiaza Makumbi-Kidza", "Gsearch": "https:\/\/www.google.com\/search?q=Psychosomatische Medizin und Psychotherapie - Frau Fiaza Makumbi-Kidza" }, "geometry": { "type": "Point", "coordinates": [ 8.694957900000077, 50.052426, 0.0 ] } },
{ "type": "Feature", "properties": { "Name": "Frauenärztin - Evelyne Bischof-Wörner", "type": "Gesundheit", "link": null, "Text": null, "Name_1": "Frauenärztin - Evelyne Bischof-Wörner", "Gsearch": "https:\/\/www.google.com\/search?q=Frauenärztin - Evelyne Bischof-Wörner" }, "geometry": { "type": "Point", "coordinates": [ 8.714597800000035, 50.123910900000055, 0.0 ] } },
{ "type": "Feature", "properties": { "Name": "Gynäkologische Endokrinologie und Reproduktionsmedizin - Daniela Chemogo-Gbellu", "type": "Gesundheit", "link": "Seit dem 1.4.2020 Oberärztin und stellvertretende Schwerpunktleiterin Gynäkologische Endokrinologie und Reproduktionsmedizin", "Text": "eMail: Daniela.Chemogo-Gbellu@kgu.de", "Name_1": "Gynäkologische Endokrinologie und Reproduktionsmedizin - Daniela Chemogo-Gbellu", "Gsearch": "https:\/\/www.google.com\/search?q=Gynäkologische Endokrinologie und Reproduktionsmedizin - Daniela Chemogo-Gbellu" }, "geometry": { "type": "Point", "coordinates": [ 8.661355, 50.094965800000068, 0.0 ] } },
{ "type": "Feature", "properties": { "Name": "Zahnarztpraxis Sebah Ibrahim", "type": "Gesundheit", "link": null, "Text": null, "Name_1": "Zahnarztpraxis Sebah Ibrahim", "Gsearch": "https:\/\/www.google.com\/search?q=Zahnarztpraxis Sebah Ibrahim" }, "geometry": { "type": "Point", "coordinates": [ 8.704805100000044, 50.126725400000055, 0.0 ] } },
{ "type": "Feature", "properties": { "Name": "Zahnarztpraxis Eschborn in Niederhöchstadt | Dr. Meriam Arefe", "type": "Gesundheit", "link": null, "Text": null, "Name_1": "Zahnarztpraxis Eschborn in Niederhöchstadt | Dr. Meriam Arefe", "Gsearch": "https:\/\/www.google.com\/search?q=Zahnarztpraxis Eschborn in Niederhöchstadt | Dr. Meriam Arefe" }, "geometry": { "type": "Point", "coordinates": [ 8.546430500000042, 50.159047800000053, 0.0 ] } },
{ "type": "Feature", "properties": { "Name": "Zahnarzt Praxis Dr. Kifle | Zahntechniker Frankfurt | Zahnmedizin | Implantate und Kinderbehandlung", "type": "Gesundheit", "link": null, "Text": null, "Name_1": "Zahnarzt Praxis Dr. Kifle | Zahntechniker Frankfurt | Zahnmedizin | Implantate und Kinderbehandlung", "Gsearch": "https:\/\/www.google.com\/search?q=Zahnarzt Praxis Dr. Kifle | Zahntechniker Frankfurt | Zahnmedizin | Implantate und Kinderbehandlung" }, "geometry": { "type": "Point", "coordinates": [ 8.67573550000003, 50.111206100000061, 0.0 ] } },
{ "type": "Feature", "properties": { "Name": "Zahnärztin mit Herz - Dr. Adiam Wolday", "type": "Gesundheit", "link": null, "Text": null, "Name_1": "Zahnärztin mit Herz - Dr. Adiam Wolday", "Gsearch": "https:\/\/www.google.com\/search?q=Zahnärztin mit Herz - Dr. Adiam Wolday" }, "geometry": { "type": "Point", "coordinates": [ 8.268147900000031, 49.998629700000038, 0.0 ] } },
{ "type": "Feature", "properties": { "Name": "Zahnarztpraxis Rivera - Implantate", "type": "Gesundheit", "link": null, "Text": null, "Name_1": "Zahnarztpraxis Rivera - Implantate", "Gsearch": "https:\/\/www.google.com\/search?q=Zahnarztpraxis Rivera - Implantate" }, "geometry": { "type": "Point", "coordinates": [ 8.608215, 50.09166, 0.0 ] } },
{ "type": "Feature", "properties": { "Name": "Zahnarzt Herr Dr. medic. stom. (IMF Klausenburg) Getachew Lemma", "type": "Gesundheit", "link": null, "Text": null, "Name_1": "Zahnarzt Herr Dr. medic. stom. (IMF Klausenburg) Getachew Lemma", "Gsearch": "https:\/\/www.google.com\/search?q=Zahnarzt Herr Dr. medic. stom. (IMF Klausenburg) Getachew Lemma" }, "geometry": { "type": "Point", "coordinates": [ 8.693819800000028, 50.105684600000075, 0.0 ] } },
{ "type": "Feature", "properties": { "Name": "Heilpraktikerin - Frau Teberih Wolde", "type": "Gesundheit", "link": null, "Text": null, "Name_1": "Heilpraktikerin - Frau Teberih Wolde", "Gsearch": "https:\/\/www.google.com\/search?q=Heilpraktikerin - Frau Teberih Wolde" }, "geometry": { "type": "Point", "coordinates": [ 9.170480400000031, 48.776193500000034, 0.0 ] } },
{ "type": "Feature", "properties": { "Name": "Apotheke an der Post", "type": "Gesundheit", "link": null, "Text": null, "Name_1": "Apotheke an der Post", "Gsearch": "https:\/\/www.google.com\/search?q=Apotheke an der Post" }, "geometry": { "type": "Point", "coordinates": [ 8.545336900000052, 50.101151600000037, 0.0 ] } },
{ "type": "Feature", "properties": { "Name": "TEBB Krankenfahrten", "type": "Gesundheit", "link": null, "Text": null, "Name_1": "TEBB Krankenfahrten", "Gsearch": "https:\/\/www.google.com\/search?q=TEBB Krankenfahrten" }, "geometry": { "type": "Point", "coordinates": [ 8.643744900000058, 50.168645100000049, 0.0 ] } },
{ "type": "Feature", "properties": { "Name": "Nicole's Ambulanter Pflegedienst", "type": "Gesundheit", "link": null, "Text": null, "Name_1": "Nicole's Ambulanter Pflegedienst", "Gsearch": "https:\/\/www.google.com\/search?q=Nicole's Ambulanter Pflegedienst" }, "geometry": { "type": "Point", "coordinates": [ 8.65078, 50.240720100000033, 0.0 ] } },
{ "type": "Feature", "properties": { "Name": "KMW Krankenfahrdienst Frankfurt GmbH", "type": "Gesundheit", "link": null, "Text": null, "Name_1": "KMW Krankenfahrdienst Frankfurt GmbH", "Gsearch": "https:\/\/www.google.com\/search?q=KMW Krankenfahrdienst Frankfurt GmbH" }, "geometry": { "type": "Point", "coordinates": [ 8.689558700000021, 50.160241100000064, 0.0 ] } },
{ "type": "Feature", "properties": { "Name": "fitfit", "type": "Bars, Restaurants und Cafés", "link": null, "Text": null, "Name_1": "fitfit", "Gsearch": "https:\/\/www.google.com\/search?q=fitfit" }, "geometry": { "type": "Point", "coordinates": [ 8.648769600000037, 50.11971310000007, 0.0 ] } },
{ "type": "Feature", "properties": { "Name": "Amarula Bar", "type": "Bars, Restaurants und Cafés", "link": null, "Text": null, "Name_1": "Amarula Bar", "Gsearch": "https:\/\/www.google.com\/search?q=Amarula Bar" }, "geometry": { "type": "Point", "coordinates": [ 8.682351, 50.115988, 0.0 ] } },
{ "type": "Feature", "properties": { "Name": "The Parlour", "type": "Bars, Restaurants und Cafés", "link": null, "Text": null, "Name_1": "The Parlour", "Gsearch": "https:\/\/www.google.com\/search?q=The Parlour" }, "geometry": { "type": "Point", "coordinates": [ 8.675806500000022, 50.115991800000074, 0.0 ] } },
{ "type": "Feature", "properties": { "Name": "Berliner Keller Frankfurt", "type": "Bars, Restaurants und Cafés", "link": null, "Text": null, "Name_1": "Berliner Keller Frankfurt", "Gsearch": "https:\/\/www.google.com\/search?q=Berliner Keller Frankfurt" }, "geometry": { "type": "Point", "coordinates": [ 8.691434700000059, 50.110473, 0.0 ] } },
{ "type": "Feature", "properties": { "Name": "Jambo Bar", "type": "Bars, Restaurants und Cafés", "link": null, "Text": null, "Name_1": "Jambo Bar", "Gsearch": "https:\/\/www.google.com\/search?q=Jambo Bar" }, "geometry": { "type": "Point", "coordinates": [ 8.668941500000074, 50.107868200000041, 0.0 ] } },
{ "type": "Feature", "properties": { "Name": "Shikorina Lounge - Frankfurt am Main", "type": "Bars, Restaurants und Cafés", "link": null, "Text": null, "Name_1": "Shikorina Lounge - Frankfurt am Main", "Gsearch": "https:\/\/www.google.com\/search?q=Shikorina Lounge - Frankfurt am Main" }, "geometry": { "type": "Point", "coordinates": [ 8.669470100000069, 50.14141010000003, 0.0 ] } },
{ "type": "Feature", "properties": { "Name": "Bar-Mereb", "type": "Bars, Restaurants und Cafés", "link": null, "Text": null, "Name_1": "Bar-Mereb", "Gsearch": "https:\/\/www.google.com\/search?q=Bar-Mereb" }, "geometry": { "type": "Point", "coordinates": [ 8.660862300000076, 50.108291300000076, 0.0 ] } },
{ "type": "Feature", "properties": { "Name": "Hakuna Matata", "type": "Bars, Restaurants und Cafés", "link": null, "Text": null, "Name_1": "Hakuna Matata", "Gsearch": "https:\/\/www.google.com\/search?q=Hakuna Matata" }, "geometry": { "type": "Point", "coordinates": [ 8.66446650000006, 50.109907200000066, 0.0 ] } },
{ "type": "Feature", "properties": { "Name": "Restaurant Spirit of New Orleans", "type": "Bars, Restaurants und Cafés", "link": null, "Text": null, "Name_1": "Restaurant Spirit of New Orleans", "Gsearch": "https:\/\/www.google.com\/search?q=Restaurant Spirit of New Orleans" }, "geometry": { "type": "Point", "coordinates": [ 8.38110770000003, 50.068779600000028, 0.0 ] } },
{ "type": "Feature", "properties": { "Name": "Lalibela", "type": "Bars, Restaurants und Cafés", "link": null, "Text": null, "Name_1": "Lalibela", "Gsearch": "https:\/\/www.google.com\/search?q=Lalibela" }, "geometry": { "type": "Point", "coordinates": [ 8.689422200000024, 50.112767400000052, 0.0 ] } },
{ "type": "Feature", "properties": { "Name": "Africa Queen Restaurant", "type": "Bars, Restaurants und Cafés", "link": null, "Text": null, "Name_1": "Africa Queen Restaurant", "Gsearch": "https:\/\/www.google.com\/search?q=Africa Queen Restaurant" }, "geometry": { "type": "Point", "coordinates": [ 8.66318810000007, 50.103133900000046, 0.0 ] } },
{ "type": "Feature", "properties": { "Name": "Addis Abebaye|Äthiopisches Restaurant Mainz", "type": "Bars, Restaurants und Cafés", "link": null, "Text": null, "Name_1": "Addis Abebaye|Äthiopisches Restaurant Mainz", "Gsearch": "https:\/\/www.google.com\/search?q=Addis Abebaye|Äthiopisches Restaurant Mainz" }, "geometry": { "type": "Point", "coordinates": [ 8.260707400000058, 50.000786900000037, 0.0 ] } },
{ "type": "Feature", "properties": { "Name": "Adabina Ethiopian Restaurant", "type": "Bars, Restaurants und Cafés", "link": null, "Text": null, "Name_1": "Adabina Ethiopian Restaurant", "Gsearch": "https:\/\/www.google.com\/search?q=Adabina Ethiopian Restaurant" }, "geometry": { "type": "Point", "coordinates": [ 8.692142500000045, 50.113169500000026, 0.0 ] } },
{ "type": "Feature", "properties": { "Name": "Dliet Bistro", "type": "Bars, Restaurants und Cafés", "link": null, "Text": null, "Name_1": "Dliet Bistro", "Gsearch": "https:\/\/www.google.com\/search?q=Dliet Bistro" }, "geometry": { "type": "Point", "coordinates": [ 8.677833900000053, 50.11982960000006, 0.0 ] } },
{ "type": "Feature", "properties": { "Name": "Erta Ale", "type": "Bars, Restaurants und Cafés", "link": null, "Text": null, "Name_1": "Erta Ale", "Gsearch": "https:\/\/www.google.com\/search?q=Erta Ale" }, "geometry": { "type": "Point", "coordinates": [ 8.645748300000037, 50.12252970000003, 0.0 ] } },
{ "type": "Feature", "properties": { "Name": "TownHall Bar & Grill", "type": "Bars, Restaurants und Cafés", "link": null, "Text": null, "Name_1": "TownHall Bar & Grill", "Gsearch": "https:\/\/www.google.com\/search?q=TownHall Bar & Grill" }, "geometry": { "type": "Point", "coordinates": [ 8.578611100000046, 49.538333300000033, 0.0 ] } },
{ "type": "Feature", "properties": { "Name": "Hidmo", "type": "Bars, Restaurants und Cafés", "link": null, "Text": null, "Name_1": "Hidmo", "Gsearch": "https:\/\/www.google.com\/search?q=Hidmo" }, "geometry": { "type": "Point", "coordinates": [ 8.68151290000003, 50.12372570000008, 0.0 ] } },
{ "type": "Feature", "properties": { "Name": "Im Herzen Afrikas", "type": "Bars, Restaurants und Cafés", "link": null, "Text": null, "Name_1": "Im Herzen Afrikas", "Gsearch": "https:\/\/www.google.com\/search?q=Im Herzen Afrikas" }, "geometry": { "type": "Point", "coordinates": [ 8.67166670000006, 50.1075, 0.0 ] } },
{ "type": "Feature", "properties": { "Name": "Im Herzen Afrikas", "type": "Bars, Restaurants und Cafés", "link": null, "Text": null, "Name_1": "Im Herzen Afrikas", "Gsearch": "https:\/\/www.google.com\/search?q=Im Herzen Afrikas" }, "geometry": { "type": "Point", "coordinates": [ 8.267930100000058, 49.99649050000005, 0.0 ] } },
{ "type": "Feature", "properties": { "Name": "Kilimanjaro Restaurant", "type": "Bars, Restaurants und Cafés", "link": null, "Text": null, "Name_1": "Kilimanjaro Restaurant", "Gsearch": "https:\/\/www.google.com\/search?q=Kilimanjaro Restaurant" }, "geometry": { "type": "Point", "coordinates": [ 8.656497100000024, 50.107082300000059, 0.0 ] } },
{ "type": "Feature", "properties": { "Name": "Mommona African Restaurant", "type": "Bars, Restaurants und Cafés", "link": null, "Text": null, "Name_1": "Mommona African Restaurant", "Gsearch": "https:\/\/www.google.com\/search?q=Mommona African Restaurant" }, "geometry": { "type": "Point", "coordinates": [ 8.691333300000053, 50.105972200000053, 0.0 ] } },
{ "type": "Feature", "properties": { "Name": "Nollywood", "type": "Bars, Restaurants und Cafés", "link": null, "Text": null, "Name_1": "Nollywood", "Gsearch": "https:\/\/www.google.com\/search?q=Nollywood" }, "geometry": { "type": "Point", "coordinates": [ 8.659238500000072, 50.10170080000006, 0.0 ] } },
{ "type": "Feature", "properties": { "Name": "Restaurant Ambassel", "type": "Bars, Restaurants und Cafés", "link": null, "Text": null, "Name_1": "Restaurant Ambassel", "Gsearch": "https:\/\/www.google.com\/search?q=Restaurant Ambassel" }, "geometry": { "type": "Point", "coordinates": [ 8.693618, 50.106649, 0.0 ] } },
{ "type": "Feature", "properties": { "Name": "Lemlem Äthiopisches Restaurant", "type": "Bars, Restaurants und Cafés", "link": null, "Text": null, "Name_1": "Lemlem Äthiopisches Restaurant", "Gsearch": "https:\/\/www.google.com\/search?q=Lemlem Äthiopisches Restaurant" }, "geometry": { "type": "Point", "coordinates": [ 6.76700210000007, 51.432247500000074, 0.0 ] } },
{ "type": "Feature", "properties": { "Name": "Restaurant Demera", "type": "Bars, Restaurants und Cafés", "link": null, "Text": null, "Name_1": "Restaurant Demera", "Gsearch": "https:\/\/www.google.com\/search?q=Restaurant Demera" }, "geometry": { "type": "Point", "coordinates": [ 8.674488600000075, 50.126642900000036, 0.0 ] } },
{ "type": "Feature", "properties": { "Name": "Savanna Restaurant", "type": "Bars, Restaurants und Cafés", "link": null, "Text": null, "Name_1": "Savanna Restaurant", "Gsearch": "https:\/\/www.google.com\/search?q=Savanna Restaurant" }, "geometry": { "type": "Point", "coordinates": [ 8.685655, 50.117849, 0.0 ] } },
{ "type": "Feature", "properties": { "Name": "Sebeta", "type": "Bars, Restaurants und Cafés", "link": null, "Text": null, "Name_1": "Sebeta", "Gsearch": "https:\/\/www.google.com\/search?q=Sebeta" }, "geometry": { "type": "Point", "coordinates": [ 8.661111100000028, 50.102222200000028, 0.0 ] } },
{ "type": "Feature", "properties": { "Name": "Äthiopisches Streetfood", "type": "Bars, Restaurants und Cafés", "link": null, "Text": null, "Name_1": "Äthiopisches Streetfood", "Gsearch": "https:\/\/www.google.com\/search?q=Äthiopisches Streetfood" }, "geometry": { "type": "Point", "coordinates": [ 8.611072800000045, 50.12497170000006, 0.0 ] } },
{ "type": "Feature", "properties": { "Name": "Äthiopische Küche", "type": "Bars, Restaurants und Cafés", "link": null, "Text": null, "Name_1": "Äthiopische Küche", "Gsearch": "https:\/\/www.google.com\/search?q=Äthiopische Küche" }, "geometry": { "type": "Point", "coordinates": [ 8.70314, 50.04868, 0.0 ] } },
{ "type": "Feature", "properties": { "Name": "HAGOS Restaurant Cafe Bar", "type": "Bars, Restaurants und Cafés", "link": null, "Text": null, "Name_1": "HAGOS Restaurant Cafe Bar", "Gsearch": "https:\/\/www.google.com\/search?q=HAGOS Restaurant Cafe Bar" }, "geometry": { "type": "Point", "coordinates": [ 8.664503400000058, 50.092008500000077, 0.0 ] } },
{ "type": "Feature", "properties": { "Name": "Ethiopia Restaurant & Bar", "type": "Bars, Restaurants und Cafés", "link": null, "Text": null, "Name_1": "Ethiopia Restaurant & Bar", "Gsearch": "https:\/\/www.google.com\/search?q=Ethiopia Restaurant & Bar" }, "geometry": { "type": "Point", "coordinates": [ 8.657000700000026, 50.107351300000062, 0.0 ] } },
{ "type": "Feature", "properties": { "Name": "Rohkosteria", "type": "Bars, Restaurants und Cafés", "link": null, "Text": null, "Name_1": "Rohkosteria", "Gsearch": "https:\/\/www.google.com\/search?q=Rohkosteria" }, "geometry": { "type": "Point", "coordinates": [ 8.697515400000043, 50.12098050000003, 0.0 ] } },
{ "type": "Feature", "properties": { "Name": "Chubbys Homemade Burger", "type": "Bars, Restaurants und Cafés", "link": null, "Text": null, "Name_1": "Chubbys Homemade Burger", "Gsearch": "https:\/\/www.google.com\/search?q=Chubbys Homemade Burger" }, "geometry": { "type": "Point", "coordinates": [ 9.188458100000048, 50.197793800000056, 0.0 ] } },
{ "type": "Feature", "properties": { "Name": "Blue Nile", "type": "Bars, Restaurants und Cafés", "link": null, "Text": null, "Name_1": "Blue Nile", "Gsearch": "https:\/\/www.google.com\/search?q=Blue Nile" }, "geometry": { "type": "Point", "coordinates": [ 8.668249900000035, 50.583306300000061, 0.0 ] } },
{ "type": "Feature", "properties": { "Name": "Mosob Restaurant", "type": "Bars, Restaurants und Cafés", "link": null, "Text": null, "Name_1": "Mosob Restaurant", "Gsearch": "https:\/\/www.google.com\/search?q=Mosob Restaurant" }, "geometry": { "type": "Point", "coordinates": [ 8.659847100000036, 50.10819, 0.0 ] } },
{ "type": "Feature", "properties": { "Name": "Kenkey House", "type": "Bars, Restaurants und Cafés", "link": "https:\/\/de-de.facebook.com\/KenkeyHouseFrankfurt\/", "Text": null, "Name_1": "Kenkey House", "Gsearch": "https:\/\/www.google.com\/search?q=Kenkey House" }, "geometry": { "type": "Point", "coordinates": [ 8.666904600000066, 50.098234400000081, 0.0 ] } },
{ "type": "Feature", "properties": { "Name": "Pizzeria Italia 90", "type": "Bars, Restaurants und Cafés", "link": null, "Text": null, "Name_1": "Pizzeria Italia 90", "Gsearch": "https:\/\/www.google.com\/search?q=Pizzeria Italia 90" }, "geometry": { "type": "Point", "coordinates": [ 8.692007800000056, 50.100973200000055, 0.0 ] } },
{ "type": "Feature", "properties": { "Name": "Soulkitchen Ideal", "type": "Bars, Restaurants und Cafés", "link": null, "Text": null, "Name_1": "Soulkitchen Ideal", "Gsearch": "https:\/\/www.google.com\/search?q=Soulkitchen Ideal" }, "geometry": { "type": "Point", "coordinates": [ 8.692324400000075, 50.053295300000059, 0.0 ] } },
{ "type": "Feature", "properties": { "Name": "Seni's Ethiopian Streetfood", "type": "Bars, Restaurants und Cafés", "link": null, "Text": null, "Name_1": "Seni's Ethiopian Streetfood", "Gsearch": "https:\/\/www.google.com\/search?q=Seni's Ethiopian Streetfood" }, "geometry": { "type": "Point", "coordinates": [ 8.610937600000057, 50.125036, 0.0 ] } },
{ "type": "Feature", "properties": { "Name": "Café Caramel - Frankfurt am Main", "type": "Bars, Restaurants und Cafés", "link": null, "Text": null, "Name_1": "Café Caramel - Frankfurt am Main", "Gsearch": "https:\/\/www.google.com\/search?q=Café Caramel - Frankfurt am Main" }, "geometry": { "type": "Point", "coordinates": [ 8.681363100000056, 50.124408100000039, 0.0 ] } },
{ "type": "Feature", "properties": { "Name": "Bunca Barista & Caterer", "type": "Bars, Restaurants und Cafés", "link": null, "Text": null, "Name_1": "Bunca Barista & Caterer", "Gsearch": "https:\/\/www.google.com\/search?q=Bunca Barista & Caterer" }, "geometry": { "type": "Point", "coordinates": [ 8.67523360000007, 50.111213100000043, 0.0 ] } },
{ "type": "Feature", "properties": { "Name": "Corretto Cafe&Bar", "type": "Bars, Restaurants und Cafés", "link": null, "Text": null, "Name_1": "Corretto Cafe&Bar", "Gsearch": "https:\/\/www.google.com\/search?q=Corretto Cafe&Bar" }, "geometry": { "type": "Point", "coordinates": [ 8.682443800000044, 50.115220700000066, 0.0 ] } },
{ "type": "Feature", "properties": { "Name": "Das Herz von Frankfurt", "type": "Bars, Restaurants und Cafés", "link": null, "Text": null, "Name_1": "Das Herz von Frankfurt", "Gsearch": "https:\/\/www.google.com\/search?q=Das Herz von Frankfurt" }, "geometry": { "type": "Point", "coordinates": [ 8.683054900000059, 50.111122100000046, 0.0 ] } },
{ "type": "Feature", "properties": { "Name": "feel good", "type": "Bars, Restaurants und Cafés", "link": null, "Text": null, "Name_1": "feel good", "Gsearch": "https:\/\/www.google.com\/search?q=feel good" }, "geometry": { "type": "Point", "coordinates": [ 8.694871900000066, 50.111143500000026, 0.0 ] } },
{ "type": "Feature", "properties": { "Name": "Elaine's Deli", "type": "Bars, Restaurants und Cafés", "link": null, "Text": null, "Name_1": "Elaine's Deli", "Gsearch": "https:\/\/www.google.com\/search?q=Elaine's Deli" }, "geometry": { "type": "Point", "coordinates": [ 8.67266840000002, 50.110532600000056, 0.0 ] } },
{ "type": "Feature", "properties": { "Name": "L'afrique GmbH", "type": "Bars, Restaurants und Cafés", "link": null, "Text": null, "Name_1": "L'afrique GmbH", "Gsearch": "https:\/\/www.google.com\/search?q=L'afrique GmbH" }, "geometry": { "type": "Point", "coordinates": [ 8.765187300000036, 50.104004600000053, 0.0 ] } },
{ "type": "Feature", "properties": { "Name": "Café Robe", "type": "Bars, Restaurants und Cafés", "link": null, "Text": null, "Name_1": "Café Robe", "Gsearch": "https:\/\/www.google.com\/search?q=Café Robe" }, "geometry": { "type": "Point", "coordinates": [ 8.707335300000068, 50.126069100000052, 0.0 ] } },
{ "type": "Feature", "properties": { "Name": "Azalye Cafe", "type": "Bars, Restaurants und Cafés", "link": null, "Text": null, "Name_1": "Azalye Cafe", "Gsearch": "https:\/\/www.google.com\/search?q=Azalye Cafe" }, "geometry": { "type": "Point", "coordinates": [ 8.678024, 50.10976480000005, 0.0 ] } },
{ "type": "Feature", "properties": { "Name": "RIGBEAUTY Hair & Cosmetics", "type": "Beauty", "link": null, "Text": null, "Name_1": "RIGBEAUTY Hair & Cosmetics", "Gsearch": "https:\/\/www.google.com\/search?q=RIGBEAUTY Hair & Cosmetics" }, "geometry": { "type": "Point", "coordinates": [ 8.66514, 50.104987, 0.0 ] } },
{ "type": "Feature", "properties": { "Name": "Afroshop - Cocoon Hair Shop Extensionsparadise", "type": "Beauty", "link": null, "Text": null, "Name_1": "Afroshop - Cocoon Hair Shop Extensionsparadise", "Gsearch": "https:\/\/www.google.com\/search?q=Afroshop - Cocoon Hair Shop Extensionsparadise" }, "geometry": { "type": "Point", "coordinates": [ 8.657079600000031, 49.871293700000081, 0.0 ] } },
{ "type": "Feature", "properties": { "Name": "GT World Of Beauty GmbH Frankfurt", "type": "Beauty", "link": null, "Text": null, "Name_1": "GT World Of Beauty GmbH Frankfurt", "Gsearch": "https:\/\/www.google.com\/search?q=GT World Of Beauty GmbH Frankfurt" }, "geometry": { "type": "Point", "coordinates": [ 8.663930100000073, 50.108390900000074, 0.0 ] } },
{ "type": "Feature", "properties": { "Name": "King David Afroshop", "type": "Beauty", "link": null, "Text": null, "Name_1": "King David Afroshop", "Gsearch": "https:\/\/www.google.com\/search?q=King David Afroshop" }, "geometry": { "type": "Point", "coordinates": [ 8.656935600000054, 49.871868100000029, 0.0 ] } },
{ "type": "Feature", "properties": { "Name": "KIARIS Hair Studio & Concept Store", "type": "Beauty", "link": null, "Text": null, "Name_1": "KIARIS Hair Studio & Concept Store", "Gsearch": "https:\/\/www.google.com\/search?q=KIARIS Hair Studio & Concept Store" }, "geometry": { "type": "Point", "coordinates": [ 8.689570500000059, 50.103524700000037, 0.0 ] } },
{ "type": "Feature", "properties": { "Name": "Kaneshie African Shop", "type": "Beauty", "link": null, "Text": null, "Name_1": "Kaneshie African Shop", "Gsearch": "https:\/\/www.google.com\/search?q=Kaneshie African Shop" }, "geometry": { "type": "Point", "coordinates": [ 8.664568400000064, 50.109320800000035, 0.0 ] } },
{ "type": "Feature", "properties": { "Name": "Philokalist", "type": "Beauty", "link": null, "Text": null, "Name_1": "Philokalist", "Gsearch": "https:\/\/www.google.com\/search?q=Philokalist" }, "geometry": { "type": "Point", "coordinates": [ 8.682694200000071, 50.111240400000042, 0.0 ] } },
{ "type": "Feature", "properties": { "Name": "Shenen Beauty", "type": "Beauty", "link": null, "Text": null, "Name_1": "Shenen Beauty", "Gsearch": "https:\/\/www.google.com\/search?q=Shenen Beauty" }, "geometry": { "type": "Point", "coordinates": [ 8.673476900000026, 50.114627100000064, 0.0 ] } },
{ "type": "Feature", "properties": { "Name": "Abeba Cosmetics", "type": "Beauty", "link": null, "Text": null, "Name_1": "Abeba Cosmetics", "Gsearch": "https:\/\/www.google.com\/search?q=Abeba Cosmetics" }, "geometry": { "type": "Point", "coordinates": [ 8.69224, 50.10472, 0.0 ] } },
{ "type": "Feature", "properties": { "Name": "Ikedi - Online Shop", "type": "Beauty", "link": "https:\/\/ikedi.net\/de\/", "Text": "Unsere Plattform \"ikedi.net\" ermöglicht es, Amateure und professionnelle Friseurinnen, Friseure und Beauty Experte\/-innen in der Nähe zu finden. Find afro hairstylists, barbers and make-up artists in your area with IKEDI an", "Name_1": "Ikedi - Online Shop", "Gsearch": "https:\/\/www.google.com\/search?q=Ikedi - Online Shop" }, "geometry": { "type": "Point", "coordinates": [ 8.707693300000074, 50.106915800000081, 0.0 ] } },
{ "type": "Feature", "properties": { "Name": "Judy_Glam - Makeup artist, hairstylist and nail art", "type": "Beauty", "link": "https:\/\/www.instagram.com\/judy__glam\/", "Text": null, "Name_1": "Judy_Glam - Makeup artist, hairstylist and nail art", "Gsearch": "https:\/\/www.google.com\/search?q=Judy_Glam - Makeup artist, hairstylist and nail art" }, "geometry": { "type": "Point", "coordinates": [ 8.712192500000072, 50.10674, 0.0 ] } },
{ "type": "Feature", "properties": { "Name": "Olivia Cuba OC - FASHION\/PERSONAL STYLISTIN", "type": "Beauty", "link": "https:\/\/oliviacubaoc.com\/", "Text": null, "Name_1": "Olivia Cuba OC - FASHION\/PERSONAL STYLISTIN", "Gsearch": "https:\/\/www.google.com\/search?q=Olivia Cuba OC - FASHION\/PERSONAL STYLISTIN" }, "geometry": { "type": "Point", "coordinates": [ 8.809840500000064, 50.145690300000069, 0.0 ] } },
{ "type": "Feature", "properties": { "Name": "HelenSemhar Makeup Artist", "type": "Beauty", "link": null, "Text": null, "Name_1": "HelenSemhar Makeup Artist", "Gsearch": "https:\/\/www.google.com\/search?q=HelenSemhar Makeup Artist" }, "geometry": { "type": "Point", "coordinates": [ 8.689956500000051, 50.109605500000043, 0.0 ] } },
{ "type": "Feature", "properties": { "Name": "Massawa", "type": "Beauty", "link": null, "Text": null, "Name_1": "Massawa", "Gsearch": "https:\/\/www.google.com\/search?q=Massawa" }, "geometry": { "type": "Point", "coordinates": [ 8.658312100000046, 50.107576800000061, 0.0 ] } },
{ "type": "Feature", "properties": { "Name": "V.I.P. HAIR AND COSMETICS e.K.", "type": "Beauty", "link": null, "Text": null, "Name_1": "V.I.P. HAIR AND COSMETICS e.K.", "Gsearch": "https:\/\/www.google.com\/search?q=V.I.P. HAIR AND COSMETICS e.K." }, "geometry": { "type": "Point", "coordinates": [ 8.662421300000062, 50.108822500000031, 0.0 ] } },
{ "type": "Feature", "properties": { "Name": "BZ Beauty Zone Inh. Tinsaeberhan Garza", "type": "Beauty", "link": null, "Text": null, "Name_1": "BZ Beauty Zone Inh. Tinsaeberhan Garza", "Gsearch": "https:\/\/www.google.com\/search?q=BZ Beauty Zone Inh. Tinsaeberhan Garza" }, "geometry": { "type": "Point", "coordinates": [ 8.662013800000068, 50.109043200000031, 0.0 ] } },
{ "type": "Feature", "properties": { "Name": "African Beauty Salon WINTA Style", "type": "Beauty", "link": null, "Text": null, "Name_1": "African Beauty Salon WINTA Style", "Gsearch": "https:\/\/www.google.com\/search?q=African Beauty Salon WINTA Style" }, "geometry": { "type": "Point", "coordinates": [ 8.686572600000034, 50.116846200000055, 0.0 ] } },
{ "type": "Feature", "properties": { "Name": "Mibrak Atewebrhan", "type": "Beauty", "link": null, "Text": null, "Name_1": "Mibrak Atewebrhan", "Gsearch": "https:\/\/www.google.com\/search?q=Mibrak Atewebrhan" }, "geometry": { "type": "Point", "coordinates": [ 8.658915600000057, 50.108534700000064, 0.0 ] } },
{ "type": "Feature", "properties": { "Name": "Ebenezer Hair & Nails", "type": "Beauty", "link": null, "Text": null, "Name_1": "Ebenezer Hair & Nails", "Gsearch": "https:\/\/www.google.com\/search?q=Ebenezer Hair & Nails" }, "geometry": { "type": "Point", "coordinates": [ 8.664269400000023, 50.110023100000035, 0.0 ] } },
{ "type": "Feature", "properties": { "Name": "EDEN Friseur Meister Betrieb", "type": "Beauty", "link": null, "Text": null, "Name_1": "EDEN Friseur Meister Betrieb", "Gsearch": "https:\/\/www.google.com\/search?q=EDEN Friseur Meister Betrieb" }, "geometry": { "type": "Point", "coordinates": [ 8.696130400000072, 50.116797600000041, 0.0 ] } },
{ "type": "Feature", "properties": { "Name": "Salems Afro Hair Salon", "type": "Beauty", "link": null, "Text": null, "Name_1": "Salems Afro Hair Salon", "Gsearch": "https:\/\/www.google.com\/search?q=Salems Afro Hair Salon" }, "geometry": { "type": "Point", "coordinates": [ 8.660303100000021, 50.101846, 0.0 ] } },
{ "type": "Feature", "properties": { "Name": "Styleby Reka", "type": "Beauty", "link": null, "Text": null, "Name_1": "Styleby Reka", "Gsearch": "https:\/\/www.google.com\/search?q=Styleby Reka" }, "geometry": { "type": "Point", "coordinates": [ 8.660129300000051, 50.101788900000031, 0.0 ] } },
{ "type": "Feature", "properties": { "Name": "Black Hair Saloon", "type": "Beauty", "link": null, "Text": null, "Name_1": "Black Hair Saloon", "Gsearch": "https:\/\/www.google.com\/search?q=Black Hair Saloon" }, "geometry": { "type": "Point", "coordinates": [ 8.662108500000045, 50.102777200000048, 0.0 ] } },
{ "type": "Feature", "properties": { "Name": "Bob's Hair Base", "type": "Beauty", "link": null, "Text": null, "Name_1": "Bob's Hair Base", "Gsearch": "https:\/\/www.google.com\/search?q=Bob's Hair Base" }, "geometry": { "type": "Point", "coordinates": [ 8.65727, 50.1084, 0.0 ] } },
{ "type": "Feature", "properties": { "Name": "Las Bonitas, Salon de Belleza, Afro hair salon, Nagelstudio", "type": "Beauty", "link": null, "Text": null, "Name_1": "Las Bonitas, Salon de Belleza, Afro hair salon, Nagelstudio", "Gsearch": "https:\/\/www.google.com\/search?q=Las Bonitas, Salon de Belleza, Afro hair salon, Nagelstudio" }, "geometry": { "type": "Point", "coordinates": [ 8.667502100000036, 50.108343900000079, 0.0 ] } },
{ "type": "Feature", "properties": { "Name": "Jossy Hair Salon", "type": "Beauty", "link": null, "Text": null, "Name_1": "Jossy Hair Salon", "Gsearch": "https:\/\/www.google.com\/search?q=Jossy Hair Salon" }, "geometry": { "type": "Point", "coordinates": [ 8.645715, 50.107073100000036, 0.0 ] } },
{ "type": "Feature", "properties": { "Name": "HAARGENAU MERCEDES GLORIA Frankfurt am Main", "type": "Beauty", "link": null, "Text": null, "Name_1": "HAARGENAU MERCEDES GLORIA Frankfurt am Main", "Gsearch": "https:\/\/www.google.com\/search?q=HAARGENAU MERCEDES GLORIA Frankfurt am Main" }, "geometry": { "type": "Point", "coordinates": [ 8.695450400000027, 50.118147800000031, 0.0 ] } },
{ "type": "Feature", "properties": { "Name": "EritreaShop", "type": "Dienstleistungen", "link": null, "Text": null, "Name_1": "EritreaShop", "Gsearch": "https:\/\/www.google.com\/search?q=EritreaShop" }, "geometry": { "type": "Point", "coordinates": [ 8.642004100000065, 50.10224850000003, 0.0 ] } },
{ "type": "Feature", "properties": { "Name": "Mama Giras", "type": "Dienstleistungen", "link": null, "Text": "Änderungsschneiderei. Eventuell geschlossen?", "Name_1": "Mama Giras", "Gsearch": "https:\/\/www.google.com\/search?q=Mama Giras" }, "geometry": { "type": "Point", "coordinates": [ 8.640388600000051, 50.101860800000054, 0.0 ] } },
{ "type": "Feature", "properties": { "Name": "Habescha Änderungsschneiderei", "type": "Dienstleistungen", "link": null, "Text": null, "Name_1": "Habescha Änderungsschneiderei", "Gsearch": "https:\/\/www.google.com\/search?q=Habescha Änderungsschneiderei" }, "geometry": { "type": "Point", "coordinates": [ 8.656515500000069, 50.109127500000056, 0.0 ] } },
{ "type": "Feature", "properties": { "Name": "Tanja Bauer Business Beratung Mainz", "type": "Dienstleistungen", "link": null, "Text": null, "Name_1": "Tanja Bauer Business Beratung Mainz", "Gsearch": "https:\/\/www.google.com\/search?q=Tanja Bauer Business Beratung Mainz" }, "geometry": { "type": "Point", "coordinates": [ 8.313997700000073, 49.963332, 0.0 ] } },
{ "type": "Feature", "properties": { "Name": "Mirror Agency", "type": "Dienstleistungen", "link": null, "Text": null, "Name_1": "Mirror Agency", "Gsearch": "https:\/\/www.google.com\/search?q=Mirror Agency" }, "geometry": { "type": "Point", "coordinates": [ 8.44512, 50.09483, 0.0 ] } },
{ "type": "Feature", "properties": { "Name": "Herman Data GmbH", "type": "Dienstleistungen", "link": null, "Text": null, "Name_1": "Herman Data GmbH", "Gsearch": "https:\/\/www.google.com\/search?q=Herman Data GmbH" }, "geometry": { "type": "Point", "coordinates": [ 8.784959800000024, 50.004436700000042, 0.0 ] } },
{ "type": "Feature", "properties": { "Name": "Schraube & Rad Meisterwerkstatt Fahrradwerkstatt", "type": "Dienstleistungen", "link": null, "Text": null, "Name_1": "Schraube & Rad Meisterwerkstatt Fahrradwerkstatt", "Gsearch": "https:\/\/www.google.com\/search?q=Schraube & Rad Meisterwerkstatt Fahrradwerkstatt" }, "geometry": { "type": "Point", "coordinates": [ 8.686431500000026, 50.120623500000079, 0.0 ] } },
{ "type": "Feature", "properties": { "Name": "Daniel Mehari, Rechtsanwalt", "type": "Dienstleistungen", "link": null, "Text": "Die Adresse des Rechtsanwalts Daniel Mehari lautet: Kaiserstrasse 79 60329 Frankfurt am Main", "Name_1": "Daniel Mehari, Rechtsanwalt", "Gsearch": "https:\/\/www.google.com\/search?q=Daniel Mehari, Rechtsanwalt" }, "geometry": { "type": "Point", "coordinates": [ 8.665847600000063, 50.107470900000067, 0.0 ] } },
{ "type": "Feature", "properties": { "Name": "NOA KFZ-Sachverständigenbüro - KFZ-Gutachter & Sachverständige", "type": "Dienstleistungen", "link": null, "Text": null, "Name_1": "NOA KFZ-Sachverständigenbüro - KFZ-Gutachter & Sachverständige", "Gsearch": "https:\/\/www.google.com\/search?q=NOA KFZ-Sachverständigenbüro - KFZ-Gutachter & Sachverständige" }, "geometry": { "type": "Point", "coordinates": [ 8.633772900000054, 50.103569500000049, 0.0 ] } },
{ "type": "Feature", "properties": { "Name": "BERHANE KFZ UG (haftungsbeschränkt)", "type": "Dienstleistungen", "link": null, "Text": null, "Name_1": "BERHANE KFZ UG (haftungsbeschränkt)", "Gsearch": "https:\/\/www.google.com\/search?q=BERHANE KFZ UG (haftungsbeschränkt)" }, "geometry": { "type": "Point", "coordinates": [ 8.745141500000045, 50.13229, 0.0 ] } },
{ "type": "Feature", "properties": { "Name": "Die Backhelden", "type": "Dienstleistungen", "link": null, "Text": null, "Name_1": "Die Backhelden", "Gsearch": "https:\/\/www.google.com\/search?q=Die Backhelden" }, "geometry": { "type": "Point", "coordinates": [ 8.636424600000055, 50.163049, 0.0 ] } },
{ "type": "Feature", "properties": { "Name": "Elenco Professional Services", "type": "Dienstleistungen", "link": null, "Text": null, "Name_1": "Elenco Professional Services", "Gsearch": "https:\/\/www.google.com\/search?q=Elenco Professional Services" }, "geometry": { "type": "Point", "coordinates": [ 8.572220500000071, 50.135396900000046, 0.0 ] } },
{ "type": "Feature", "properties": { "Name": "PH-Medical Pflegedienst GbR Gabric&Tesfazion", "type": "Dienstleistungen", "link": null, "Text": null, "Name_1": "PH-Medical Pflegedienst GbR Gabric&Tesfazion", "Gsearch": "https:\/\/www.google.com\/search?q=PH-Medical Pflegedienst GbR Gabric&Tesfazion" }, "geometry": { "type": "Point", "coordinates": [ 8.686927, 50.105956500000048, 0.0 ] } },
{ "type": "Feature", "properties": { "Name": "Deutsche Post Filiale 550", "type": "Dienstleistungen", "link": null, "Text": null, "Name_1": "Deutsche Post Filiale 550", "Gsearch": "https:\/\/www.google.com\/search?q=Deutsche Post Filiale 550" }, "geometry": { "type": "Point", "coordinates": [ 8.697461400000066, 50.115642600000058, 0.0 ] } },
{ "type": "Feature", "properties": { "Name": "Hermes PaketShop", "type": "Dienstleistungen", "link": null, "Text": null, "Name_1": "Hermes PaketShop", "Gsearch": "https:\/\/www.google.com\/search?q=Hermes PaketShop" }, "geometry": { "type": "Point", "coordinates": [ 8.65746, 50.107999100000029, 0.0 ] } },
{ "type": "Feature", "properties": { "Name": "A&A Hüpfburgenparadies", "type": "Dienstleistungen", "link": null, "Text": null, "Name_1": "A&A Hüpfburgenparadies", "Gsearch": "https:\/\/www.google.com\/search?q=A&A Hüpfburgenparadies" }, "geometry": { "type": "Point", "coordinates": [ 8.62102, 50.10115, 0.0 ] } },
{ "type": "Feature", "properties": { "Name": "Thomas Zeray - Unternehmensjurist", "type": "Dienstleistungen", "link": null, "Text": "Dear #blackOwnedbusinessowner,", "Name_1": "Thomas Zeray - Unternehmensjurist", "Gsearch": "https:\/\/www.google.com\/search?q=Thomas Zeray - Unternehmensjurist" }, "geometry": { "type": "Point", "coordinates": [ 8.700331300000073, 50.107219600000064, 0.0 ] } },
{ "type": "Feature", "properties": { "Name": "E&A Wedding Deco", "type": "Dienstleistungen", "link": "https:\/\/www.facebook.com\/EuAWedding.deco\/", "Text": null, "Name_1": "E&A Wedding Deco", "Gsearch": "https:\/\/www.google.com\/search?q=E&A Wedding Deco" }, "geometry": { "type": "Point", "coordinates": [ 8.66754190000006, 49.643016900000077, 0.0 ] } },
{ "type": "Feature", "properties": { "Name": "Putzmunter GmbH", "type": "Dienstleistungen", "link": null, "Text": null, "Name_1": "Putzmunter GmbH", "Gsearch": "https:\/\/www.google.com\/search?q=Putzmunter GmbH" }, "geometry": { "type": "Point", "coordinates": [ 8.643786200000022, 50.115946300000076, 0.0 ] } },
{ "type": "Feature", "properties": { "Name": "winnerberhanephotography", "type": "Dienstleistungen", "link": "https:\/\/www.instagram.com\/winnerberhanephotography\/?hl=en", "Text": null, "Name_1": "winnerberhanephotography", "Gsearch": "https:\/\/www.google.com\/search?q=winnerberhanephotography" }, "geometry": { "type": "Point", "coordinates": [ 8.707317100000068, 50.106546900000069, 0.0 ] } },
{ "type": "Feature", "properties": { "Name": "John - Photography", "type": "Dienstleistungen", "link": "https:\/\/www.instagram.com\/byjohn__\/", "Text": null, "Name_1": "John - Photography", "Gsearch": "https:\/\/www.google.com\/search?q=John - Photography" }, "geometry": { "type": "Point", "coordinates": [ 8.707324700000072, 50.106677700000034, 0.0 ] } },
{ "type": "Feature", "properties": { "Name": "Meikel Araya - Coach", "type": "Dienstleistungen", "link": "https:\/\/www.instagram.com\/meikelaraya\/?hl=en", "Text": null, "Name_1": "Meikel Araya - Coach", "Gsearch": "https:\/\/www.google.com\/search?q=Meikel Araya - Coach" }, "geometry": { "type": "Point", "coordinates": [ 8.71522120000003, 50.106567600000062, 0.0 ] } },
{ "type": "Feature", "properties": { "Name": "mamakeba - PoC Online Plattform", "type": "Dienstleistungen", "link": "www.mamakeba.com", "Text": null, "Name_1": "mamakeba - PoC Online Plattform", "Gsearch": "https:\/\/www.google.com\/search?q=mamakeba - PoC Online Plattform" }, "geometry": { "type": "Point", "coordinates": [ 8.718974, 50.10658310000008, 0.0 ] } },
{ "type": "Feature", "properties": { "Name": "textilsicher", "type": "Dienstleistungen", "link": "https:\/\/www.textilsicher.de\/", "Text": "WE PRINT", "Name_1": "textilsicher", "Gsearch": "https:\/\/www.google.com\/search?q=textilsicher" }, "geometry": { "type": "Point", "coordinates": [ 8.701490100000058, 50.107146400000033, 0.0 ] } },
{ "type": "Feature", "properties": { "Name": "Euro-Kiosk", "type": "Geschäfte", "link": null, "Text": null, "Name_1": "Euro-Kiosk", "Gsearch": "https:\/\/www.google.com\/search?q=Euro-Kiosk" }, "geometry": { "type": "Point", "coordinates": [ 8.662288500000045, 50.108869600000048, 0.0 ] } },
{ "type": "Feature", "properties": { "Name": "Lemlem Habesha Market", "type": "Geschäfte", "link": null, "Text": null, "Name_1": "Lemlem Habesha Market", "Gsearch": "https:\/\/www.google.com\/search?q=Lemlem Habesha Market" }, "geometry": { "type": "Point", "coordinates": [ 8.656924100000026, 50.107101700000044, 0.0 ] } },
{ "type": "Feature", "properties": { "Name": "African Bazaar", "type": "Geschäfte", "link": null, "Text": null, "Name_1": "African Bazaar", "Gsearch": "https:\/\/www.google.com\/search?q=African Bazaar" }, "geometry": { "type": "Point", "coordinates": [ 8.658723900000041, 50.108516500000064, 0.0 ] } },
{ "type": "Feature", "properties": { "Name": "African Shop. Chimafro", "type": "Geschäfte", "link": null, "Text": null, "Name_1": "African Shop. Chimafro", "Gsearch": "https:\/\/www.google.com\/search?q=African Shop. Chimafro" }, "geometry": { "type": "Point", "coordinates": [ 8.692520300000069, 50.11300650000004, 0.0 ] } },
{ "type": "Feature", "properties": { "Name": "Chriskes Afro Shop", "type": "Geschäfte", "link": null, "Text": null, "Name_1": "Chriskes Afro Shop", "Gsearch": "https:\/\/www.google.com\/search?q=Chriskes Afro Shop" }, "geometry": { "type": "Point", "coordinates": [ 8.235866200000032, 50.077807300000075, 0.0 ] } },
{ "type": "Feature", "properties": { "Name": "African Shop", "type": "Geschäfte", "link": null, "Text": null, "Name_1": "African Shop", "Gsearch": "https:\/\/www.google.com\/search?q=African Shop" }, "geometry": { "type": "Point", "coordinates": [ 8.665636600000028, 50.105876200000068, 0.0 ] } },
{ "type": "Feature", "properties": { "Name": "AMA Fashion", "type": "Geschäfte", "link": null, "Text": null, "Name_1": "AMA Fashion", "Gsearch": "https:\/\/www.google.com\/search?q=AMA Fashion" }, "geometry": { "type": "Point", "coordinates": [ 8.365776800000049, 49.631845400000032, 0.0 ] } },
{ "type": "Feature", "properties": { "Name": "Matilda 2nd Hand Kinderwarenladen", "type": "Geschäfte", "link": null, "Text": null, "Name_1": "Matilda 2nd Hand Kinderwarenladen", "Gsearch": "https:\/\/www.google.com\/search?q=Matilda 2nd Hand Kinderwarenladen" }, "geometry": { "type": "Point", "coordinates": [ 8.68477, 50.10461, 0.0 ] } },
{ "type": "Feature", "properties": { "Name": "Afroton", "type": "Geschäfte", "link": null, "Text": null, "Name_1": "Afroton", "Gsearch": "https:\/\/www.google.com\/search?q=Afroton" }, "geometry": { "type": "Point", "coordinates": [ 8.620068, 50.102962800000057, 0.0 ] } },
{ "type": "Feature", "properties": { "Name": "Bäckerei Da Remo", "type": "Geschäfte", "link": null, "Text": null, "Name_1": "Bäckerei Da Remo", "Gsearch": "https:\/\/www.google.com\/search?q=Bäckerei Da Remo" }, "geometry": { "type": "Point", "coordinates": [ 8.627129800000034, 50.128183100000058, 0.0 ] } },
{ "type": "Feature", "properties": { "Name": "Koffi Company - Online Shop", "type": "Geschäfte", "link": "https:\/\/kofficompany.com\/", "Text": null, "Name_1": "Koffi Company - Online Shop", "Gsearch": "https:\/\/www.google.com\/search?q=Koffi Company - Online Shop" }, "geometry": { "type": "Point", "coordinates": [ 8.703638400000045, 50.106982300000027, 0.0 ] } },
{ "type": "Feature", "properties": { "Name": "Save the Neighborhood - Online Shop", "type": "Geschäfte", "link": "https:\/\/savetheneighborhood.de\/", "Text": null, "Name_1": "Save the Neighborhood - Online Shop", "Gsearch": "https:\/\/www.google.com\/search?q=Save the Neighborhood - Online Shop" }, "geometry": { "type": "Point", "coordinates": [ 8.705762200000038, 50.106957100000045, 0.0 ] } },
{ "type": "Feature", "properties": { "Name": "hellomynameiseritrea - Online Shop", "type": "Geschäfte", "link": "https:\/\/hellomynameiseritrea.com\/", "Text": null, "Name_1": "hellomynameiseritrea - Online Shop", "Gsearch": "https:\/\/www.google.com\/search?q=hellomynameiseritrea - Online Shop" }, "geometry": { "type": "Point", "coordinates": [ 8.702543500000047, 50.107129100000066, 0.0 ] } },
{ "type": "Feature", "properties": { "Name": "Zemuye - Online Shop", "type": "Geschäfte", "link": "https:\/\/zemuye.com\/ ", "Text": "CONTEMPORARY DESIGNS", "Name_1": "Zemuye - Online Shop", "Gsearch": "https:\/\/www.google.com\/search?q=Zemuye - Online Shop" }, "geometry": { "type": "Point", "coordinates": [ 8.709128500000077, 50.106589600000063, 0.0 ] } },
{ "type": "Feature", "properties": { "Name": "shikorinatingz - Online Shop", "type": "Geschäfte", "link": "https:\/\/shikorinatingz.com\/", "Text": "https:\/\/www.instagram.com\/shikorinatingz\/?hl=en", "Name_1": "shikorinatingz - Online Shop", "Gsearch": "https:\/\/www.google.com\/search?q=shikorinatingz - Online Shop" }, "geometry": { "type": "Point", "coordinates": [ 8.704742200000055, 50.106987200000049, 0.0 ] } },
{ "type": "Feature", "properties": { "Name": "Ena Styles- Online Shop", "type": "Geschäfte", "link": "https:\/\/ena-styles.com\/", "Text": null, "Name_1": "Ena Styles- Online Shop", "Gsearch": "https:\/\/www.google.com\/search?q=Ena Styles- Online Shop" }, "geometry": { "type": "Point", "coordinates": [ 8.250566400000025, 50.084588600000075, 0.0 ] } },
{ "type": "Feature", "properties": { "Name": "Sakhile&Me", "type": "Kultur, Kunst, Sport, Podcast, Youtuber und Vereine", "link": null, "Text": null, "Name_1": "Sakhile&Me", "Gsearch": "https:\/\/www.google.com\/search?q=Sakhile&Me" }, "geometry": { "type": "Point", "coordinates": [ 8.668274500000052, 50.117188400000032, 0.0 ] } },
{ "type": "Feature", "properties": { "Name": "ADAN e. V. - Afro Deutsches Akademiker Netzwerk", "type": "Kultur, Kunst, Sport, Podcast, Youtuber und Vereine", "link": "https:\/\/ada-netzwerk.com\/", "Text": "https:\/\/www.facebook.com\/adanetzwerk\/", "Name_1": "ADAN e. V. - Afro Deutsches Akademiker Netzwerk", "Gsearch": "https:\/\/www.google.com\/search?q=ADAN e. V. - Afro Deutsches Akademiker Netzwerk" }, "geometry": { "type": "Point", "coordinates": [ 8.681034700000055, 50.108107300000029, 0.0 ] } },
{ "type": "Feature", "properties": { "Name": "Afrikanischer und Karibischer Kulturverein e.V.", "type": "Kultur, Kunst, Sport, Podcast, Youtuber und Vereine", "link": null, "Text": null, "Name_1": "Afrikanischer und Karibischer Kulturverein e.V.", "Gsearch": "https:\/\/www.google.com\/search?q=Afrikanischer und Karibischer Kulturverein e.V." }, "geometry": { "type": "Point", "coordinates": [ 8.68739, 50.11337, 0.0 ] } },
{ "type": "Feature", "properties": { "Name": "DaMigra e.V. Migrantinnenverein e.V.", "type": "Kultur, Kunst, Sport, Podcast, Youtuber und Vereine", "link": null, "Text": null, "Name_1": "DaMigra e.V. Migrantinnenverein e.V.", "Gsearch": "https:\/\/www.google.com\/search?q=DaMigra e.V. Migrantinnenverein e.V." }, "geometry": { "type": "Point", "coordinates": [ 8.656955500000038, 50.107248600000048, 0.0 ] } },
{ "type": "Feature", "properties": { "Name": "ISD Frankfurt - Initiative Schwarze Menschen in Deutschland", "type": "Kultur, Kunst, Sport, Podcast, Youtuber und Vereine", "link": null, "Text": "Die Initiative Schwarze Menschen in Deutschland (englisch Initiative of Black People in Germany; ISD beziehungsweise ISD-Bund e. V.) ist ein Interessenverein Schwarzer Menschen in Deutschland mit Sitz in Berlin. Der Verein möchte die Interessen Schwarze", "Name_1": "ISD Frankfurt - Initiative Schwarze Menschen in Deutschland", "Gsearch": "https:\/\/www.google.com\/search?q=ISD Frankfurt - Initiative Schwarze Menschen in Deutschland" }, "geometry": { "type": "Point", "coordinates": [ 8.681614, 50.107854200000077, 0.0 ] } },
{ "type": "Feature", "properties": { "Name": "PROJEKT MOSES E.V.", "type": "Kultur, Kunst, Sport, Podcast, Youtuber und Vereine", "link": null, "Text": null, "Name_1": "PROJEKT MOSES E.V.", "Gsearch": "https:\/\/www.google.com\/search?q=PROJEKT MOSES E.V." }, "geometry": { "type": "Point", "coordinates": [ 8.689707, 50.109809600000062, 0.0 ] } },
{ "type": "Feature", "properties": { "Name": "Ndi-Igbo Germany", "type": "Kultur, Kunst, Sport, Podcast, Youtuber und Vereine", "link": null, "Text": null, "Name_1": "Ndi-Igbo Germany", "Gsearch": "https:\/\/www.google.com\/search?q=Ndi-Igbo Germany" }, "geometry": { "type": "Point", "coordinates": [ 8.76837, 50.12345, 0.0 ] } },
{ "type": "Feature", "properties": { "Name": "KulturquARTier Frankfurt e.V.", "type": "Kultur, Kunst, Sport, Podcast, Youtuber und Vereine", "link": null, "Text": null, "Name_1": "KulturquARTier Frankfurt e.V.", "Gsearch": "https:\/\/www.google.com\/search?q=KulturquARTier Frankfurt e.V." }, "geometry": { "type": "Point", "coordinates": [ 8.744444200000032, 50.135999800000036, 0.0 ] } },
{ "type": "Feature", "properties": { "Name": "LemLem Grow e.V.", "type": "Kultur, Kunst, Sport, Podcast, Youtuber und Vereine", "link": "https:\/\/www.facebook.com\/LemlemGrow\/", "Text": "https:\/\/www.instagram.com\/lemlemgrow\/", "Name_1": "LemLem Grow e.V.", "Gsearch": "https:\/\/www.google.com\/search?q=LemLem Grow e.V." }, "geometry": { "type": "Point", "coordinates": [ 8.710003900000061, 50.106749500000035, 0.0 ] } },
{ "type": "Feature", "properties": { "Name": "FC Ethio Addis Frankfurt", "type": "Kultur, Kunst, Sport, Podcast, Youtuber und Vereine", "link": null, "Text": null, "Name_1": "FC Ethio Addis Frankfurt", "Gsearch": "https:\/\/www.google.com\/search?q=FC Ethio Addis Frankfurt" }, "geometry": { "type": "Point", "coordinates": [ 8.63307, 50.07711, 0.0 ] } },
{ "type": "Feature", "properties": { "Name": "SV Eritrea Ffm", "type": "Kultur, Kunst, Sport, Podcast, Youtuber und Vereine", "link": null, "Text": null, "Name_1": "SV Eritrea Ffm", "Gsearch": "https:\/\/www.google.com\/search?q=SV Eritrea Ffm" }, "geometry": { "type": "Point", "coordinates": [ 8.64218470000003, 50.129808900000057, 0.0 ] } },
{ "type": "Feature", "properties": { "Name": "DiversityFM - Der Podcast", "type": "Kultur, Kunst, Sport, Podcast, Youtuber und Vereine", "link": "https:\/\/diversityfm-derpodcast.podigee.io\/", "Text": null, "Name_1": "DiversityFM - Der Podcast", "Gsearch": "https:\/\/www.google.com\/search?q=DiversityFM - Der Podcast" }, "geometry": { "type": "Point", "coordinates": [ 8.682886500000052, 50.108522500000049, 0.0 ] } },
{ "type": "Feature", "properties": { "Name": "Makingtheworkplaceabetterplace - Podcast", "type": "Kultur, Kunst, Sport, Podcast, Youtuber und Vereine", "link": "https:\/\/linktr.ee\/Makingtheworkplaceabetterplace", "Text": null, "Name_1": "Makingtheworkplaceabetterplace - Podcast", "Gsearch": "https:\/\/www.google.com\/search?q=Makingtheworkplaceabetterplace - Podcast" }, "geometry": { "type": "Point", "coordinates": [ 8.684431500000073, 50.108797800000048, 0.0 ] } },
{ "type": "Feature", "properties": { "Name": "1. Frankfurter Kindertagespflegeverein", "type": "Kultur, Kunst, Sport, Podcast, Youtuber und Vereine", "link": null, "Text": null, "Name_1": "1. Frankfurter Kindertagespflegeverein", "Gsearch": "https:\/\/www.google.com\/search?q=1. Frankfurter Kindertagespflegeverein" }, "geometry": { "type": "Point", "coordinates": [ 8.685391, 50.151501, 0.0 ] } },
{ "type": "Feature", "properties": { "Name": "Lusyd's spiritual wellness", "type": "Kultur, Kunst, Sport, Podcast, Youtuber und Vereine", "link": "https:\/\/www.instagram.com\/lusyd.awakening\/?hl=en", "Text": "https:\/\/www.youtube.com\/channel\/UCv_hnSrRCfpHwf1iZLPiPHQ", "Name_1": "Lusyd's spiritual wellness", "Gsearch": "https:\/\/www.google.com\/search?q=Lusyd's spiritual wellness" }, "geometry": { "type": "Point", "coordinates": [ 8.275447700000029, 50.009518, 0.0 ] } },
{ "type": "Feature", "properties": { "Name": "Ashanti Dance", "type": "Kultur, Kunst, Sport, Podcast, Youtuber und Vereine", "link": null, "Text": null, "Name_1": "Ashanti Dance", "Gsearch": "https:\/\/www.google.com\/search?q=Ashanti Dance" }, "geometry": { "type": "Point", "coordinates": [ 8.636699900000053, 50.12319, 0.0 ] } },
{ "type": "Feature", "properties": { "Name": "Yogalehrerin - Diarra Diop", "type": "Kultur, Kunst, Sport, Podcast, Youtuber und Vereine", "link": "http:\/\/frankfurtpoweryoga.de\/", "Text": null, "Name_1": "Yogalehrerin - Diarra Diop", "Gsearch": "https:\/\/www.google.com\/search?q=Yogalehrerin - Diarra Diop" }, "geometry": { "type": "Point", "coordinates": [ 8.682168200000035, 50.117374700000028, 0.0 ] } },
{ "type": "Feature", "properties": { "Name": "COACH WELFitness- & Personal Trainer", "type": "Kultur, Kunst, Sport, Podcast, Youtuber und Vereine", "link": "https:\/\/www.instagram.com\/coach_wel\/?hl=en", "Text": null, "Name_1": "COACH WELFitness- & Personal Trainer", "Gsearch": "https:\/\/www.google.com\/search?q=COACH WELFitness- & Personal Trainer" }, "geometry": { "type": "Point", "coordinates": [ 8.712707500000022, 50.108825200000069, 0.0 ] } },
{ "type": "Feature", "properties": { "Name": "Miss Jah - Singer\/Songwriter", "type": "Kultur, Kunst, Sport, Podcast, Youtuber und Vereine", "link": "https:\/\/www.instagram.com\/mounicemimi\/?hl=en", "Text": null, "Name_1": "Miss Jah - Singer\/Songwriter", "Gsearch": "https:\/\/www.google.com\/search?q=Miss Jah - Singer\/Songwriter" }, "geometry": { "type": "Point", "coordinates": [ 8.717084900000032, 50.106293, 0.0 ] } },
{ "type": "Feature", "properties": { "Name": "Dennis Sasu N. - Photography", "type": "Kultur, Kunst, Sport, Podcast, Youtuber und Vereine", "link": null, "Text": null, "Name_1": "Dennis Sasu N. - Photography", "Gsearch": "https:\/\/www.google.com\/search?q=Dennis Sasu N. - Photography" }, "geometry": { "type": "Point", "coordinates": [ 8.721247700000049, 50.107146200000045, 0.0 ] } },
{ "type": "Feature", "properties": { "Name": "DKJ e.V. - Deutsch-Kongolesisches Jugendinstitut", "type": "Kultur, Kunst, Sport, Podcast, Youtuber und Vereine", "link": "https:\/\/www.facebook.com\/deutschkongolesischesjugendistitut\/about\/?ref=page_internalZweck", "Text": null, "Name_1": "DKJ e.V. - Deutsch-Kongolesisches Jugendinstitut", "Gsearch": "https:\/\/www.google.com\/search?q=DKJ e.V. - Deutsch-Kongolesisches Jugendinstitut" }, "geometry": { "type": "Point", "coordinates": [ 8.713666800000055, 50.106276300000047, 0.0 ] } }
]
}
